[
  {
    "sheetName": "BursaBB-1-YıldırımSamanlı-hune",
    "id": "bbb-yildirim-samanli",
    "name": "Yıldırım Samanlı",
    "district": "Yıldırım",
    "stationType": "municipal-official",
    "lat": 40.2238401,
    "lng": 29.1221324,
    "locationStrategy": "neighbourhood-centroid",
    "locationQuery": "Samanlı Mahallesi, Yıldırım, Bursa, Turkey",
    "locationNote": "Samanlı Mahallesi merkezine yakın yaklaşık konum."
  },
  {
    "sheetName": "BursaBB-2-KestelBarakfakih-hinc",
    "id": "bbb-kestel-barakfakih",
    "name": "Kestel Barakfakih",
    "district": "Kestel",
    "stationType": "municipal-official",
    "lat": 40.2365218,
    "lng": 29.275994,
    "locationStrategy": "neighbourhood-centroid",
    "locationQuery": "Barakfakih, Kestel, Bursa, Turkey",
    "locationNote": "Barakfakih yerleşimi merkezine yakın yaklaşık konum."
  },
  {
    "sheetName": "BursaBB-3OsmangaziDemirtaş-heri",
    "id": "bbb-osmangazi-demirtas",
    "name": "Osmangazi Demirtaş",
    "district": "Osmangazi",
    "stationType": "municipal-official",
    "lat": 40.2721261,
    "lng": 29.0942,
    "locationStrategy": "neighbourhood-centroid",
    "locationQuery": "Demirtaş, Osmangazi, Bursa, Turkey",
    "locationNote": "Demirtaş yerleşim alanı merkezine yakın yaklaşık konum."
  },
  {
    "sheetName": "BursaBB-4- YıldırımVakıf-hola",
    "id": "bbb-yildirim-vakif",
    "name": "Yıldırım Vakıf",
    "district": "Yıldırım",
    "stationType": "municipal-official",
    "lat": 40.2169284,
    "lng": 29.1449,
    "locationStrategy": "neighbourhood-centroid",
    "locationQuery": "Vakıf Mahallesi, Yıldırım, Bursa, Turkey",
    "locationNote": "Vakıf Mahallesi merkezine yakın yaklaşık konum."
  },
  {
    "sheetName": "BursaBB-5-Gemlik-hyle",
    "id": "bbb-gemlik",
    "name": "Gemlik",
    "district": "Gemlik",
    "stationType": "municipal-official",
    "lat": 40.4301652,
    "lng": 29.1570698,
    "locationStrategy": "district-centre",
    "locationQuery": "Gemlik, Bursa, Turkey",
    "locationNote": "İlçe merkezi fallback konumu."
  },
  {
    "sheetName": "BursaBB-6-KentMeydanı-lana",
    "id": "bbb-kent-meydani",
    "name": "Kent Meydanı",
    "district": "Osmangazi",
    "stationType": "municipal-official",
    "lat": 40.1964808,
    "lng": 29.0603983,
    "locationStrategy": "landmark",
    "locationQuery": "Kent Meydanı AVM, Osmangazi, Bursa, Turkey",
    "locationNote": "Kent Meydanı AVM çevresi yaklaşık konum."
  },
  {
    "sheetName": "BursaBB-7-HanlarBölgesi-lata",
    "id": "bbb-hanlar-bolgesi",
    "name": "Hanlar Bölgesi",
    "district": "Osmangazi",
    "stationType": "municipal-official",
    "lat": 40.1847073,
    "lng": 29.0641756,
    "locationStrategy": "landmark",
    "locationQuery": "Hanlar Bölgesi, Osmangazi, Bursa, Turkey",
    "locationNote": "Hanlar Bölgesi çekirdeğine yakın yaklaşık konum."
  },
  {
    "sheetName": "BursaBB-8-Gürsu-mali",
    "id": "bbb-gursu",
    "name": "Gürsu",
    "district": "Gürsu",
    "stationType": "municipal-official",
    "lat": 40.2175842,
    "lng": 29.1935635,
    "locationStrategy": "district-centre",
    "locationQuery": "Gürsu, Bursa, Turkey",
    "locationNote": "İlçe merkezi fallback konumu."
  },
  {
    "sheetName": "BursaBB-9-Kestel-moly",
    "id": "bbb-kestel",
    "name": "Kestel",
    "district": "Kestel",
    "stationType": "municipal-official",
    "lat": 40.2007544,
    "lng": 29.2128704,
    "locationStrategy": "district-centre",
    "locationQuery": "Kestel, Bursa, Turkey",
    "locationNote": "İlçe merkezi fallback konumu."
  },
  {
    "sheetName": "BursaBB-10-İnegöl-lanx",
    "id": "bbb-inegol",
    "name": "İnegöl",
    "district": "İnegöl",
    "stationType": "municipal-official",
    "lat": 40.0800359,
    "lng": 29.5096528,
    "locationStrategy": "district-centre",
    "locationQuery": "İnegöl, Bursa, Turkey",
    "locationNote": "İlçe merkezi fallback konumu."
  },
  {
    "sheetName": "BursaBB-11-Mustafakemalpaşa",
    "id": "bbb-mustafakemalpasa",
    "name": "Mustafakemalpaşa",
    "district": "Mustafakemalpaşa",
    "stationType": "municipal-official",
    "lat": 40.0350481,
    "lng": 28.4132707,
    "locationStrategy": "district-centre",
    "locationQuery": "Mustafakemalpaşa, Bursa, Turkey",
    "locationNote": "İlçe merkezi fallback konumu."
  },
  {
    "sheetName": "BursaBB-12-Karacabey",
    "id": "bbb-karacabey",
    "name": "Karacabey",
    "district": "Karacabey",
    "stationType": "municipal-official",
    "lat": 40.2159844,
    "lng": 28.3590588,
    "locationStrategy": "district-centre",
    "locationQuery": "Karacabey, Bursa, Turkey",
    "locationNote": "İlçe merkezi fallback konumu."
  },
  {
    "sheetName": "BursaBB-13-Orhaneli",
    "id": "bbb-orhaneli",
    "name": "Orhaneli",
    "district": "Orhaneli",
    "stationType": "municipal-official",
    "lat": 39.9026561,
    "lng": 28.9866861,
    "locationStrategy": "district-centre",
    "locationQuery": "Orhaneli, Bursa, Turkey",
    "locationNote": "İlçe merkezi fallback konumu."
  },
  {
    "sheetName": "BursaBB-14-GemlikAtatepe",
    "id": "bbb-gemlik-atatepe",
    "name": "Gemlik Atatepe",
    "district": "Gemlik",
    "stationType": "municipal-official",
    "lat": 40.418841,
    "lng": 29.1368666,
    "locationStrategy": "landmark",
    "locationQuery": "Gemlik Atatepe Sosyal Tesisleri, Gemlik, Bursa, Turkey",
    "locationNote": "Atatepe sosyal tesisleri çevresi yaklaşık konum."
  },
  {
    "sheetName": "BursaBB-15-Keles",
    "id": "bbb-keles",
    "name": "Keles",
    "district": "Keles",
    "stationType": "municipal-official",
    "lat": 39.9128869,
    "lng": 29.2341651,
    "locationStrategy": "district-centre",
    "locationQuery": "Keles, Bursa, Turkey",
    "locationNote": "İlçe merkezi fallback konumu."
  }
]
